timestamp,stateEstimate.x,stateEstimate.y,stateEstimate.z,stateEstimate.vx,stateEstimate.vy,stateEstimate.vz,stateEstimate.ax,stateEstimate.ay,stateEstimate.az,stateEstimate.roll,stateEstimate.pitch,stateEstimate.yaw,stateEstimateZ.rateRoll,stateEstimateZ.ratePitch,stateEstimateZ.rateYaw,stabilizer.thrust,motor.m1,motor.m2,motor.m3,motor.m4
31418.245,0.07289814949035645,-0.18985389173030853,1.0725370645523071,0.006027560215443373,-0.01787385158240795,-0.004782463889569044,-0.01828533597290516,0.024188784882426262,-0.027668654918670654,-0.7024791836738586,0.2617504894733429,2.8441195487976074,-120,-105,119,45196.95703125,50430,55613,50853,13199
31428.13,0.07300852239131927,-0.19038158655166626,1.0724436044692993,0.005736176855862141,-0.017603827640414238,-0.006735990289598703,0.01836143620312214,-0.0010908108670264482,-0.0014247894287109375,-0.7488034963607788,0.2155257910490036,2.9061203002929688,-372,-392,138,45249.88671875,51270,54486,50685,19870
31438.0,0.07312595844268799,-0.19094504415988922,1.0723689794540405,0.005470316391438246,-0.017416059970855713,-0.0072563220746815205,0.049212533980607986,0.007610483095049858,0.01732182502746582,-0.9199755191802979,0.03347776085138321,2.977642297744751,-763,-764,144,45266.09765625,51555,51798,50812,28291
31447.872,0.07323352992534637,-0.19153399765491486,1.0723094940185547,0.005355076398700476,-0.017084361985325813,-0.005611598491668701,0.03694038838148117,0.019624164327979088,0.026875019073486328,-1.29402494430542,-0.34817686676979065,3.0492606163024902,-1233,-1203,148,45227.15234375,51113,47883,51161,35274
31457.751,0.07333984225988388,-0.19211718440055847,1.0722519159317017,0.005731203593313694,-0.016190430149435997,-0.0027468777261674404,-0.006963495630770922,0.05075971037149429,-0.00690460205078125,-1.9164495468139648,-0.9675220847129822,3.1120877265930176,-1738,-1672,146,45157.1484375,50616,42708,51470,41493
31467.628,0.0734669417142868,-0.1926797330379486,1.0722029209136963,0.0069796000607311726,-0.01441843993961811,-0.0026416683103889227,0.009489791467785835,0.031959667801856995,-0.033415377140045166,-2.817375898361206,-1.8586030006408691,3.1538500785827637,-2234,-2129,140,45155.66015625,50443,37024,51341,46216
31477.497,0.07361626625061035,-0.19326551258563995,1.0721677541732788,0.009376110509037971,-0.011551220901310444,-0.006122894119471312,0.07628753781318665,0.0607643648982048,0.01511228084564209,-4.008825302124023,-3.0093581676483154,3.1621294021606445,-2616,-2495,158,45243.6171875,51570,30742,50411,49995
31487.372,0.0737963318824768,-0.19378848373889923,1.0721367597579956,0.013674290850758553,-0.0063231405802071095,-0.005757850594818592,0.09218679368495941,0.07751923054456711,0.019308924674987793,-5.43711519241333,-4.376012325286865,3.1327362060546875,-2875,-2751,182,45235.1171875,51491,25397,50794,52286
31497.25,0.0740206316113472,-0.19421692192554474,1.072128415107727,0.020184099674224854,0.0017363448860123754,-0.0037888060323894024,0.0872986912727356,0.12106335163116455,3.719329833984375e-05,-7.037149906158447,-5.908696174621582,3.06307053565979,-3016,-2859,205,45185.0390625,51760,22217,50727,53345
31507.13,0.0742991715669632,-0.19454792141914368,1.0721458196640015,0.02881382405757904,0.012403205968439579,-0.004242711700499058,0.11766505986452103,0.16421566903591156,-0.009644031524658203,-8.741084098815918,-7.519742488861084,2.953453302383423,-3001,-2849,224,45194.25390625,51995,20449,50695,53929
31516.998,0.07465560734272003,-0.19481901824474335,1.072160243988037,0.03987397626042366,0.02592891827225685,-0.0055024088360369205,0.19280368089675903,0.20907902717590332,-0.0006462335586547852,-10.467660903930664,-9.14077091217041,2.8064448833465576,-2874,-2707,248,45223.890625,52448,19778,50430,54178
31526.875,0.07512809336185455,-0.19497494399547577,1.0721708536148071,0.05375666916370392,0.042769476771354675,-0.00598534569144249,0.2131328284740448,0.2007206529378891,0.01920938491821289,-12.140031814575195,-10.691134452819824,2.635753631591797,-2554,-2379,262,45234.3125,52721,23448,49914,52979
31536.749,0.07573214173316956,-0.19498321413993835,1.0721888542175293,0.07044999301433563,0.06306075304746628,-0.005337317008525133,0.2237565517425537,0.26739534735679626,0.008939504623413086,-13.661199569702148,-12.08120346069336,2.4669687747955322,-2213,-2058,274,45215.93359375,52762,25665,49810,52178
31546.627,0.07655252516269684,-0.1948796957731247,1.0722438097000122,0.08952528238296509,0.08595708012580872,-0.005187815520912409,0.17864419519901276,0.2799950838088989,-0.02454274892807007,-14.98122501373291,-13.293694496154785,2.3169264793395996,-1682,-1586,288,45208.06640625,53395,31907,48720,49161
31556.506,0.0775742307305336,-0.19458594918251038,1.072329044342041,0.10991720855236053,0.11028601974248886,-0.008197320625185966,0.2866784632205963,0.347470760345459,-0.05239081382751465,-16.024614334106445,-14.263912200927734,2.214736223220825,-1209,-1078,279,45278.0234375,53440,35587,48590,47129
31566.382,0.0787375345826149,-0.19382667541503906,1.0724103450775146,0.13176745176315308,0.13735973834991455,-0.011119700968265533,0.2820931375026703,0.26290035247802734,-0.010293722152709961,-16.780315399169922,-14.960746765136719,2.1769778728485107,-674,-591,261,45346.3515625,53800,40918,47501,42946
31576.257,0.08014602214097977,-0.19269819557666779,1.072471022605896,0.1552227884531021,0.1666581928730011,-0.012833653949201107,0.1899569034576416,0.29282355308532715,-0.030423998832702637,-17.23055648803711,-15.38843059539795,2.2101635932922363,-238,-93,274,45385.671875,53819,44189,47658,39390
31586.13,0.08177368342876434,-0.19130751490592957,1.0724974870681763,0.17862722277641296,0.1958930790424347,-0.01731414534151554,0.292831152677536,0.3219621181488037,-0.05716586112976074,-17.391324996948242,-15.5389986038208,2.328193426132202,112,330,271,45496.47265625,53643,45700,48178,37565
31596.001,0.0836198478937149,-0.1895597279071808,1.072479248046875,0.2021310031414032,0.22572505474090576,-0.021733025088906288,0.2927449941635132,0.32244905829429626,-0.056626737117767334,-17.316091537475586,-15.444189071655273,2.525611400604248,417,695,274,45608.58984375,52265,46288,50422,36668
31605.881,0.08578239381313324,-0.18752004206180573,1.0724434852600098,0.2257605642080307,0.2557907998561859,-0.02523842453956604,0.24632637202739716,0.30657657980918884,-0.060015738010406494,-17.04863929748535,-15.164677619934082,2.785104751586914,600,968,280,45699.2265625,51897,45952,51312,37010
31615.757,0.08811118453741074,-0.18524813652038574,1.072364091873169,0.24846306443214417,0.28491565585136414,-0.029742442071437836,0.26172956824302673,0.2950400114059448,-0.04491215944290161,-16.634002685546875,-14.715564727783203,3.099804401397705,661,1137,266,45817.671875,51891,46146,51711,36843
31625.629,0.09075238555669785,-0.18260107934474945,1.0721467733383179,0.27082329988479614,0.31397148966789246,-0.033256810158491135,0.2292926162481308,0.30921557545661926,-0.052364468574523926,-16.17469024658203,-14.155797958374023,3.43617844581604,674,1212,257,45918.83203125,51731,45582,52124,37441
31635.502,0.09355469048023224,-0.17969678342342377,1.0718175172805786,0.29175829887390137,0.34186452627182007,-0.03752164915204048,0.21976962685585022,0.2686627507209778,-0.025890469551086426,-15.703239440917969,-13.53661823272705,3.778085708618164,585,1253,251,46045.08203125,51674,44941,52612,38247
31645.377,0.0965430960059166,-0.17641936242580414,1.0714207887649536,0.31167319416999817,0.36930930614471436,-0.04077496379613876,0.18263444304466248,0.26107123494148254,-0.03613311052322388,-15.274431228637695,-12.884511947631836,4.118217945098877,482,1186,222,46150.015625,51540,43535,52862,39989
31655.259,0.09977436065673828,-0.17290891706943512,1.0709748268127441,0.3302840292453766,0.3955764174461365,-0.04487600550055504,0.18883679807186127,0.2534722685813904,-0.020888864994049072,-14.912677764892578,-12.252573013305664,4.433173179626465,331,1071,201,46279.359375,51575,41526,53013,42138
31665.141,0.10313822329044342,-0.16910873353481293,1.070505976676941,0.3477013409137726,0.4212366044521332,-0.048209644854068756,0.18005411326885223,0.25101402401924133,-0.025473475456237793,-14.642282485961914,-11.673164367675781,4.715658664703369,184,941,173,46391.3046875,50992,39898,53447,43657
31675.013,0.1067538857460022,-0.16505229473114014,1.0700023174285889,0.36425966024398804,0.44644948840141296,-0.0509747639298439,0.17705270648002625,0.2627094089984894,-0.008610665798187256,-14.466126441955566,-11.167539596557617,4.958349227905273,65,820,150,46491.35546875,51240,38147,53213,45099
31684.885,0.11051326990127563,-0.1606007218360901,1.0694880485534668,0.3800215423107147,0.4719219505786896,-0.05226541683077812,0.14087028801441193,0.26765719056129456,-0.016977250576019287,-14.372522354125977,-10.718695640563965,5.169217109680176,-18,653,124,46555.4375,51976,36283,52769,46691
31694.759,0.11438457667827606,-0.15599970519542694,1.068978190422058,0.3946915566921234,0.496655136346817,-0.05381833389401436,0.1490819901227951,0.25703954696655273,-0.008149683475494385,-14.34730339050293,-10.350522994995117,5.344218730926514,-94,538,110,46626.25,51757,33855,52909,48208
31704.633,0.11848768591880798,-0.1510717272758484,1.0684584379196167,0.4088059365749359,0.5213861465454102,-0.05555535480380058,0.13847872614860535,0.23688271641731262,-0.015383780002593994,-14.365437507629395,-10.05056095123291,5.487965106964111,-99,476,92,46702.59375,52111,32793,52793,49024
31714.505,0.12268020957708359,-0.14598621428012848,1.0679317712783813,0.422114759683609,0.5455963015556335,-0.05767412483692169,0.13874004781246185,0.24803504347801208,-0.00336611270904541,-14.396059036254883,-9.783990859985352,5.610304832458496,-19,454,73,46789.31640625,52065,33810,52733,48457
31724.381,0.1270211637020111,-0.14056332409381866,1.067397117614746,0.43503451347351074,0.5702740550041199,-0.05882076546549797,0.1298595815896988,0.2686753571033478,-0.0020251870155334473,-14.397186279296875,-9.53674030303955,5.717711448669434,82,464,55,46852.48046875,52301,34094,52535,48390
31734.261,0.13144122064113617,-0.13492415845394135,1.0668776035308838,0.4474582374095917,0.5950305461883545,-0.05887588858604431,0.13272404670715332,0.24764448404312134,0.011427521705627441,-14.346447944641113,-9.28272819519043,5.8168559074401855,264,534,44,46887.78125,52742,34919,52284,48004
31744.133,0.13602575659751892,-0.12897318601608276,1.0663282871246338,0.4595479965209961,0.61998051404953,-0.0584222674369812,0.11563149839639664,0.25630858540534973,-0.0015337467193603516,-14.20161247253418,-8.997331619262695,5.914972305297852,453,613,35,46911.96875,52699,35557,52370,47591
31754.007,0.14065061509609222,-0.1228136345744133,1.065821886062622,0.4707387387752533,0.6442520022392273,-0.05892832204699516,0.12145338207483292,0.24998630583286285,0.009144067764282227,-13.946501731872559,-8.66512393951416,6.017833232879639,682,749,17,46958.24609375,52636,37995,52442,45970
31763.882,0.1455022692680359,-0.1164076030254364,1.0653361082077026,0.4818023145198822,0.6683057546615601,-0.05857424437999725,0.10031146556138992,0.24146540462970734,0.016987919807434082,-13.571267127990723,-8.268651962280273,6.128285884857178,909,882,-2,46982.08984375,52987,39885,52056,44533
31773.76,0.15044784545898438,-0.1098058745265007,1.0648229122161865,0.4922746419906616,0.6917204260826111,-0.057064954191446304,0.111980140209198,0.22489392757415771,0.01950216293334961,-13.070061683654785,-7.798063278198242,6.241420745849609,1140,1044,-19,46978.3671875,53438,40562,51503,43964
31783.635,0.1554468721151352,-0.10290255397558212,1.064333438873291,0.5019473433494568,0.7144171595573425,-0.055399853736162186,0.09239570051431656,0.2236749231815338,0.016142606735229492,-12.434577941894531,-7.233944416046143,6.360922813415527,1321,1170,-31,46969.4765625,53307,42255,51674,42327
31793.509,0.15964356064796448,-0.09698119759559631,1.0639078617095947,0.5089156627655029,0.7331661581993103,-0.053862228989601135,0.08076348900794983,0.21017998456954956,0.028214693069458008,-11.675508499145508,-6.578251361846924,6.480530738830566,1467,1277,-44,46960.48046875,53399,43599,51570,40878
31803.384,0.16501781344413757,-0.08942707628011703,1.0633845329284668,0.5133548378944397,0.7482314109802246,-0.05175917223095894,0.06920900195837021,0.18391276895999908,0.039788126945495605,-10.829692840576172,-5.850906848907471,6.595309734344482,1560,1413,-55,46942.09375,53070,44955,52126,39392
31813.261,0.170685812830925,-0.08121518045663834,1.0629137754440308,0.5217002630233765,0.7692335844039917,-0.048304054886102676,0.04718789458274841,0.15561184287071228,0.05257725715637207,-9.951459884643555,-5.080495357513428,6.701363563537598,1606,1474,-59,46886.91015625,53278,43517,51898,40849
31823.136,0.17609542608261108,-0.07336835563182831,1.0625125169754028,0.5278522372245789,0.786933422088623,-0.04375114664435387,0.041396792978048325,0.14777883887290955,0.04991781711578369,-9.035855293273926,-4.247269630432129,6.8012614250183105,1599,1490,-72,46800.25,53281,44572,51823,39500
31833.017,0.1814354509115219,-0.06546343863010406,1.0621378421783447,0.5322921872138977,0.8023871183395386,-0.03904089331626892,0.037677910178899765,0.12173597514629364,0.0544201135635376,-8.119589805603027,-3.3987276554107666,6.889819622039795,1548,1478,-84,46707.734375,52868,44066,52207,39946
31842.889,0.18679925799369812,-0.0575215183198452,1.0618175268173218,0.535375714302063,0.8156359195709229,-0.034230321645736694,0.01436647493392229,0.09714218974113464,0.05744326114654541,-7.2229323387146,-2.5498383045196533,6.957195281982422,1435,1454,-94,46609.35546875,52754,43181,52240,40785
31852.76,0.19220492243766785,-0.04942690581083298,1.0615105628967285,0.5371499061584473,0.8271286487579346,-0.029729796573519707,-0.003723550122231245,0.08222628384828568,0.04806780815124512,-6.384335517883301,-1.7067763805389404,7.005039691925049,1353,1427,-113,46517.47265625,52313,42649,52398,41197
31862.638,0.1975720077753067,-0.04120393097400665,1.061201810836792,0.5374419093132019,0.8367400765419006,-0.02579178847372532,-0.011685469187796116,0.07004473358392715,0.06158745288848877,-5.595791816711426,-0.8784637451171875,7.029303550720215,1227,1368,-122,46439.23828125,51357,43017,53316,40853
31872.512,0.20292727649211884,-0.03289483115077019,1.061013102531433,0.5365005731582642,0.8447933197021484,-0.02034948021173477,-0.02280440367758274,0.0526864267885685,0.060194969177246094,-4.874192714691162,-0.08951453864574432,7.03054666519165,1113,1264,-140,46316.609375,51760,41562,52647,42202
31882.385,0.20827463269233704,-0.024512212723493576,1.0608947277069092,0.5342930555343628,0.8513804078102112,-0.014516031369566917,-0.04059528559446335,0.04287407547235489,0.0366436243057251,-4.220261573791504,0.6574862599372864,7.013068675994873,989,1195,-150,46179.81640625,51109,39943,53049,43603
31892.262,0.21362748742103577,-0.016131749376654625,1.0608197450637817,0.5310618877410889,0.8562254309654236,-0.010797630995512009,-0.05147639289498329,0.01904168538749218,0.05780947208404541,-3.6326239109039307,1.3547682762145996,6.974748611450195,916,1103,-161,46093.16015625,50780,40999,53182,42633
31902.139,0.2188996523618698,-0.007642043754458427,1.0607801675796509,0.5264889597892761,0.8600739240646362,-0.005998513195663691,-0.06332868337631226,-0.0026755663566291332,0.048590660095214844,-3.096942663192749,1.9987713098526,6.922204971313477,852,1014,-174,45976.96484375,51233,39246,52494,44077
31912.011,0.22416241466999054,0.0007444421062245965,1.0607705116271973,0.5210515856742859,0.8623554110527039,-0.0017275894060730934,-0.08324883133172989,-0.021231191232800484,0.05358016490936279,-2.5975351333618164,2.604541540145874,6.8547773361206055,827,955,-179,45871.796875,50985,38909,52569,44310
31921.887,0.22933056950569153,0.009249052964150906,1.0608042478561401,0.5145972371101379,0.8639959096908569,0.0031933472491800785,-0.08838624507188797,0.0011539023835211992,0.04113638401031494,-2.115123987197876,3.1657979488372803,6.776551723480225,849,888,-176,45747.41015625,50766,40248,52639,42992
31931.763,0.23437876999378204,0.017793910577893257,1.0608571767807007,0.5071595311164856,0.8645694255828857,0.006944415625184774,-0.08742477744817734,-0.014409099705517292,0.04010426998138428,-1.6303033828735352,3.6778876781463623,6.692668914794922,875,831,-178,45650.68359375,51155,40594,52175,42618
31941.641,0.2393054962158203,0.026201702654361725,1.060962438583374,0.4987625181674957,0.8639037013053894,0.010455104522407055,-0.09881217777729034,-0.0361117348074913,0.03126263618469238,-1.132479190826416,4.1599225997924805,6.602414131164551,923,795,-178,45556.7265625,51275,41064,51792,41990
31951.519,0.24415220320224762,0.034649595618247986,1.061168909072876,0.48981502652168274,0.862321674823761,0.014037994667887688,-0.09581119567155838,-0.05107709765434265,0.04239296913146973,-0.5987036824226379,4.618724822998047,6.503962993621826,998,774,-191,45455.23828125,51190,41111,51659,42013
31961.388,0.2489115297794342,0.043070755898952484,1.061486005783081,0.48007285594940186,0.8598558902740479,0.018345795571804047,-0.11396695673465729,-0.03380407765507698,0.03372800350189209,-0.02596401609480381,5.063643932342529,6.398492336273193,1069,757,-199,45329.265625,51551,41886,51084,41219
31971.273,0.2535751760005951,0.051436327397823334,1.06185781955719,0.4697507917881012,0.8561394810676575,0.02217957191169262,-0.10840871185064316,-0.06535691022872925,0.04596590995788574,0.5804869532585144,5.499379634857178,6.284278392791748,1130,769,-179,45211.62890625,51658,42534,50767,40124
31981.143,0.2581453025341034,0.0597526915371418,1.062260627746582,0.45877158641815186,0.851306140422821,0.026868149638175964,-0.12406288832426071,-0.047272294759750366,0.03054988384246826,1.2261983156204224,5.937908172607422,6.1728644371032715,1183,762,-193,45070.15234375,51574,42998,50576,39639
31991.019,0.26251065731048584,0.06797286123037338,1.0626393556594849,0.44697001576423645,0.8452035784721375,0.03049892745912075,-0.12929049134254456,-0.07107468694448471,0.03440237045288086,1.909907341003418,6.3740234375,6.051822662353516,1235,754,-188,44955.5703125,51581,43321,50576,39285
32000.898,0.2668583393096924,0.07609295845031738,1.0630806684494019,0.4349103569984436,0.8378790020942688,0.03367216885089874,-0.13708904385566711,-0.1051822230219841,0.00781393051147461,2.6279802322387695,6.806042671203613,5.92409610748291,1232,745,-187,44848.58984375,51641,43754,50175,38594
32010.772,0.2710343897342682,0.08415892720222473,1.0636069774627686,0.4222688674926758,0.8294549584388733,0.03530900552868843,-0.13504791259765625,-0.12301340699195862,-0.0032491087913513184,3.3486955165863037,7.2351884841918945,5.793679714202881,1218,711,-182,44775.25,51821,43891,49843,38390
32020.643,0.27507805824279785,0.09208865463733673,1.0641835927963257,0.40927115082740784,0.819736123085022,0.03590832278132439,-0.13287609815597534,-0.13056208193302155,0.019404888153076172,4.064474105834961,7.64777946472168,5.660536766052246,1170,690,-184,44724.953125,51290,43661,50301,38737
32030.515,0.2789801359176636,0.09988847374916077,1.0647244453430176,0.39554446935653687,0.8084787130355835,0.03769896924495697,-0.16069720685482025,-0.12956289947032928,-0.007180690765380859,4.767913341522217,8.038247108459473,5.520517826080322,1104,650,-187,44646.109375,51273,43186,50139,39332
32040.391,0.28277960419654846,0.10758011788129807,1.0652321577072144,0.38154274225234985,0.7961570024490356,0.03782759979367256,-0.1437692791223526,-0.15975457429885864,-0.012647032737731934,5.4268412590026855,8.409051895141602,5.377209186553955,1035,629,-180,44610.19140625,50624,44069,50739,38313
32050.267,0.28638142347335815,0.1151617169380188,1.0657423734664917,0.36686620116233826,0.782729983329773,0.03776322677731514,-0.15850311517715454,-0.17125900089740753,0.0028276443481445312,6.056839466094971,8.755282402038574,5.2321648597717285,943,580,-186,44578.71875,50339,44076,50865,38466
32060.145,0.2898099422454834,0.12254652380943298,1.0663111209869385,0.35151055455207825,0.7679137587547302,0.03904379531741142,-0.17140573263168335,-0.164872407913208,-0.019828379154205322,6.6399922370910645,9.078972816467285,5.083909034729004,837,510,-191,44510.2109375,50614,43511,50406,39231
32070.018,0.2931165397167206,0.12977223098278046,1.0669060945510864,0.33604058623313904,0.7523304224014282,0.0387175977230072,-0.14372731745243073,-0.1808328777551651,-0.011952698230743408,7.163070201873779,9.367158889770508,4.936609268188477,727,433,-183,44480.3046875,50504,42405,50449,40475
32079.893,0.29623252153396606,0.13685202598571777,1.067414402961731,0.3200824558734894,0.7358911037445068,0.037694208323955536,-0.1640264391899109,-0.18805965781211853,-0.01247406005859375,7.625383377075195,9.615072250366211,4.795433521270752,652,374,-173,44472.05078125,50222,42787,50694,40090
32089.768,0.2992267608642578,0.14371831715106964,1.06793212890625,0.303745836019516,0.7183977961540222,0.03738267719745636,-0.18247994780540466,-0.15217722952365875,-0.02323359251022339,8.0382661819458,9.824798583984375,4.660915851593018,558,305,-179,44445.3046875,49886,43096,50724,39779
32099.647,0.30204007029533386,0.15037328004837036,1.068415880203247,0.28732946515083313,0.7003691792488098,0.03569092974066734,-0.1487724483013153,-0.19408564269542694,-0.012816965579986572,8.400982856750488,9.99156379699707,4.529969215393066,515,245,-177,44454.7578125,50619,43095,49941,39898
32109.521,0.3046618103981018,0.1568690538406372,1.0688936710357666,0.27055808901786804,0.6817532777786255,0.034424543380737305,-0.16743169724941254,-0.22206084430217743,-0.01800602674484253,8.724189758300781,10.126137733459473,4.406936168670654,430,191,-176,44453.8125,50041,42132,50598,41169
32119.403,0.3071388304233551,0.1632056087255478,1.0693292617797852,0.2536810338497162,0.6626062393188477,0.03310980647802353,-0.17767560482025146,-0.1972879320383072,-0.022733449935913086,9.01445198059082,10.226607322692871,4.2871785163879395,415,158,-178,44456.14453125,50280,42929,50282,40466
32129.274,0.30948129296302795,0.16927887499332428,1.0697742700576782,0.23678669333457947,0.642875075340271,0.03178873658180237,-0.1830352246761322,-0.18011565506458282,-0.058223724365234375,9.283543586730957,10.302019119262695,4.169790744781494,384,114,-184,44458.12109375,49947,43279,50497,40268
32139.156,0.3115959167480469,0.17515850067138672,1.0701498985290527,0.2200155407190323,0.6232026219367981,0.02764609456062317,-0.14317187666893005,-0.20030660927295685,-0.048692166805267334,9.536681175231934,10.349815368652344,4.055678844451904,381,116,-168,44534.515625,49912,43748,50639,39800
32149.021,0.31352680921554565,0.18078024685382843,1.0705171823501587,0.20326094329357147,0.603112518787384,0.023442156612873077,-0.12969398498535156,-0.23418046534061432,-0.026766955852508545,9.787633895874023,10.393259048461914,3.9474897384643555,373,80,-181,44613.28125,50077,43324,50407,40648
32158.895,0.31532713770866394,0.1862155646085739,1.070825457572937,0.18621335923671722,0.5823970437049866,0.02115464396774769,-0.1372373104095459,-0.2278430461883545,-0.017933905124664307,10.037339210510254,10.424717903137207,3.8387458324432373,370,57,-178,44647.24609375,50630,43717,49825,40345
32168.772,0.31695985794067383,0.19146041572093964,1.071119785308838,0.16902253031730652,0.5611634850502014,0.019831636920571327,-0.19674140214920044,-0.2305223047733307,-0.04613107442855835,10.280975341796875,10.441115379333496,3.7278990745544434,386,38,-165,44657.81640625,51010,44714,49435,39172
32178.656,0.31839656829833984,0.19652876257896423,1.0713592767715454,0.1520851105451584,0.540034830570221,0.016700366511940956,-0.18779899179935455,-0.19877922534942627,-0.04711043834686279,10.519795417785645,10.447270393371582,3.6288130283355713,375,32,-167,44716.6484375,50545,44792,50077,39433
32188.523,0.3197309076786041,0.20130549371242523,1.071565866470337,0.13545642793178558,0.518535315990448,0.01278587244451046,-0.1875511109828949,-0.1948176473379135,-0.06271612644195557,10.765429496765137,10.443666458129883,3.5269038677215576,350,30,-158,44797.15234375,50907,45265,49775,38982
32198.4,0.32086220383644104,0.20584531128406525,1.0717225074768066,0.11900416016578674,0.4969455897808075,0.0076316967606544495,-0.15536774694919586,-0.2206186056137085,-0.062438130378723145,10.990737915039062,10.44104290008545,3.429636240005493,292,-4,-160,44911.796875,50811,45120,49918,39471
32208.274,0.3218376040458679,0.21019679307937622,1.0718355178833008,0.10267091542482376,0.4751065969467163,0.0022480932530015707,-0.13906744122505188,-0.23152053356170654,-0.02154719829559326,11.187029838562012,10.423539161682129,3.337204933166504,254,-38,-156,45035.0625,50617,45416,50216,39358
32218.15,0.3226441442966461,0.21431513130664825,1.0719008445739746,0.08580759167671204,0.45232251286506653,-0.00012293153849896044,-0.1577158272266388,-0.23501667380332947,-0.03087061643600464,11.364758491516113,10.383624076843262,3.2523510456085205,230,-75,-155,45085.67578125,50886,44970,49932,40061
32228.023,0.32329049706459045,0.2182261049747467,1.0719430446624756,0.06906758248806,0.429375559091568,-0.0022728608455508947,-0.1716518998146057,-0.21432359516620636,-0.03634148836135864,11.530439376831055,10.327457427978516,3.168663501739502,193,-82,-154,45132.16796875,50888,45746,49933,39256
32237.907,0.32378092408180237,0.2218737006187439,1.0719547271728516,0.05264655500650406,0.4063155949115753,-0.00524905463680625,-0.15827180445194244,-0.20613916218280792,-0.055743515491485596,11.666231155395508,10.26059627532959,3.089951515197754,109,-113,-154,45201.23046875,50944,45798,50047,39525
32247.778,0.3241034746170044,0.2252824902534485,1.071945071220398,0.03664717450737953,0.38352298736572266,-0.009953970089554787,-0.14798061549663544,-0.19829313457012177,-0.05303674936294556,11.760698318481445,10.175150871276855,3.015441417694092,47,-154,-153,45315.23046875,51094,45543,49958,40090
32257.653,0.32431793212890625,0.22846245765686035,1.0719037055969238,0.020944388583302498,0.360638827085495,-0.014702354557812214,-0.11962025612592697,-0.2264343500137329,-0.02648872137069702,11.81757640838623,10.070813179016113,2.9463047981262207,-22,-152,-153,45432.58203125,50559,45681,50586,40185
32267.526,0.32442471385002136,0.2314021736383438,1.0718460083007812,0.005282106343656778,0.3373078405857086,-0.01748093031346798,-0.128573477268219,-0.2408672571182251,-0.023640692234039307,11.834601402282715,9.957880020141602,2.8783130645751953,-90,-191,-150,45501.890625,51017,44869,50160,41283
32277.409,0.32440996170043945,0.2341282218694687,1.071692943572998,-0.010260417126119137,0.31386157870292664,-0.019272837787866592,-0.1670433133840561,-0.23134058713912964,-0.0368461012840271,11.812028884887695,9.83407211303711,2.815340995788574,-130,-220,-147,45551.58203125,50939,44903,50268,41360
32287.279,0.32429710030555725,0.23635725677013397,1.0714908838272095,-0.025448786094784737,0.29004785418510437,-0.021980730816721916,-0.17020784318447113,-0.20143529772758484,-0.0612637996673584,11.763690948486328,9.694296836853027,2.756373882293701,-198,-244,-136,45627.0625,50777,45506,50547,40718
32297.157,0.3241899609565735,0.23849959671497345,1.0711071491241455,-0.03917255252599716,0.26508602499961853,-0.02701702155172825,-0.13371489942073822,-0.21406956017017365,-0.04772305488586426,11.689994812011719,9.526549339294434,2.7058684825897217,-223,-282,-138,45770.69921875,51553,45274,50024,41330
32307.031,0.3236294388771057,0.24076935648918152,1.070723056793213,-0.05368202552199364,0.24366988241672516,-0.03216707706451416,-0.11072037369012833,-0.2337743490934372,-0.02209848165512085,11.569920539855957,9.357768058776855,2.6596171855926514,-265,-294,-141,45918.08203125,50897,45280,50766,41717
32316.906,0.3228127658367157,0.24260501563549042,1.0703119039535522,-0.06860443204641342,0.22132635116577148,-0.03497683256864548,-0.09998769313097,-0.23917247354984283,-0.00793766975402832,11.443740844726562,9.171514511108398,2.6147661209106445,-292,-339,-121,46008.8515625,51427,44987,50402,42023
32326.776,0.3219216465950012,0.2442009449005127,1.0698643922805786,-0.08321379125118256,0.19898326694965363,-0.036430567502975464,-0.13958576321601868,-0.22573143243789673,-0.017254412174224854,11.289709091186523,8.971907615661621,2.577707052230835,-289,-363,-126,46067.8984375,51433,45018,50398,42162
32336.657,0.3209311366081238,0.245563805103302,1.0694092512130737,-0.09736356139183044,0.17691242694854736,-0.0377497561275959,-0.15402957797050476,-0.18219316005706787,-0.03410041332244873,11.135717391967773,8.75197982788086,2.547044515609741,-266,-362,-120,46124.30078125,51718,46194,50317,40988
32346.526,0.3197900950908661,0.24669791758060455,1.0689265727996826,-0.11082378029823303,0.15562070906162262,-0.04109421744942665,-0.1280394345521927,-0.18370959162712097,-0.029507935047149658,10.98580551147461,8.526960372924805,2.521955966949463,-263,-364,-115,46233.36328125,51822,45868,50329,41517
32356.407,0.3184834420681,0.24761104583740234,1.0684113502502441,-0.12400350719690323,0.13462987542152405,-0.04417123645544052,-0.09657160937786102,-0.19910484552383423,-0.009768009185791016,10.84367561340332,8.30712604522705,2.496412992477417,-250,-352,-104,46338.0,52235,46441,50017,40885
32366.282,0.3170587718486786,0.24831706285476685,1.067819595336914,-0.1369980424642563,0.11364566534757614,-0.04579438641667366,-0.11011248081922531,-0.21640239655971527,-0.0005409121513366699,10.706208229064941,8.092358589172363,2.47245717048645,-258,-334,-102,46410.5625,51858,46319,50528,41152
32376.16,0.3155305087566376,0.24885019659996033,1.0672495365142822,-0.14968736469745636,0.09283789247274399,-0.0460701622068882,-0.11267110705375671,-0.19481892883777618,-0.004917323589324951,10.571431159973145,7.883048057556152,2.4493699073791504,-260,-333,-110,46448.5859375,52174,46631,50126,40941
32386.032,0.313945472240448,0.24916155636310577,1.0667152404785156,-0.1618054211139679,0.07235885411500931,-0.04639982432126999,-0.10626960545778275,-0.17725421488285065,-0.018009543418884277,10.428869247436523,7.682458877563477,2.424633502960205,-302,-344,-105,46486.39453125,51964,46295,50430,41379
32395.903,0.3121737241744995,0.24930515885353088,1.066094994544983,-0.1735701560974121,0.05261171981692314,-0.04858187958598137,-0.07176697254180908,-0.18528425693511963,0.0058689117431640625,10.270578384399414,7.4746503829956055,2.399571418762207,-329,-359,-102,46575.35546875,52017,45987,50464,41874
32405.786,0.3102770149707794,0.24932749569416046,1.0654999017715454,-0.18517601490020752,0.033157069236040115,-0.049224093556404114,-0.08129242062568665,-0.18757934868335724,0.005405306816101074,10.090668678283691,7.265928268432617,2.3759143352508545,-401,-364,-107,46624.859375,51685,46181,50992,41934
32415.667,0.3082961142063141,0.24922992289066315,1.0648822784423828,-0.19642435014247894,0.014128793962299824,-0.04897046834230423,-0.10851281881332397,-0.1724524050951004,-0.0021909475326538086,9.880345344543457,7.044224262237549,2.3518500328063965,-405,-381,-104,46653.26953125,51766,46282,50941,41849
32425.534,0.3062344193458557,0.24905912578105927,1.0642836093902588,-0.2071053832769394,-0.004025741945952177,-0.04916238412261009,-0.0814950168132782,-0.17557679116725922,0.0007114410400390625,9.655693054199219,6.809826850891113,2.3324759006500244,-469,-379,-94,46692.10546875,52065,45222,50706,43024
32435.405,0.30401766300201416,0.24845655262470245,1.0637054443359375,-0.21753276884555817,-0.022280098870396614,-0.0495237372815609,-0.08056753873825073,-0.16930434107780457,0.01802992820739746,9.40205192565918,6.583160877227783,2.314146041870117,-519,-375,-97,46734.40625,51687,45762,51128,42532
32445.281,0.3017043173313141,0.24751265347003937,1.0631381273269653,-0.22771073877811432,-0.040746647864580154,-0.048336539417505264,-0.10049984604120255,-0.15834785997867584,0.0057027339935302734,9.12412166595459,6.354217529296875,2.2918615341186523,-548,-368,-88,46737.46484375,51307,45872,51561,42340
32455.158,0.2993367910385132,0.24642705917358398,1.0625568628311157,-0.23734059929847717,-0.05854613333940506,-0.047338128089904785,-0.07232706248760223,-0.1459304690361023,0.011077046394348145,8.827690124511719,6.127996921539307,2.2757649421691895,-558,-382,-90,46745.9921875,51902,46050,50931,42184
32465.031,0.29685765504837036,0.24517950415611267,1.0620242357254028,-0.24657592177391052,-0.07561119645833969,-0.04659946262836456,-0.06722087413072586,-0.16963572800159454,0.03350675106048584,8.511574745178223,5.8980793952941895,2.259742021560669,-577,-368,-78,46758.6484375,51782,45535,51141,42683
32474.907,0.29431527853012085,0.24377749860286713,1.0614933967590332,-0.2555847465991974,-0.09233779460191727,-0.04384167492389679,-0.0857282280921936,-0.13047665357589722,0.021946310997009277,8.188942909240723,5.674319267272949,2.244636297225952,-570,-384,-90,46720.50390625,52013,45236,50771,43083
32484.781,0.2917124927043915,0.24219979345798492,1.060920000076294,-0.26404088735580444,-0.10835143178701401,-0.042118947952985764,-0.07284466922283173,-0.14839541912078857,0.01429128646850586,7.869987487792969,5.448004722595215,2.225022554397583,-578,-399,-80,46710.3046875,51534,45595,51327,42587
32494.659,0.28901466727256775,0.24048948287963867,1.0603917837142944,-0.27207648754119873,-0.12362189590930939,-0.04080701246857643,-0.03580782935023308,-0.14101426303386688,0.04249703884124756,7.551901340484619,5.207613468170166,2.210183620452881,-536,-410,-81,46708.09765625,51974,45699,50840,42493
32504.537,0.2862592339515686,0.23859070241451263,1.0599061250686646,-0.27987584471702576,-0.13857319951057434,-0.037629853934049606,-0.06854531913995743,-0.1376846730709076,0.035021305084228516,7.246443748474121,4.963686943054199,2.1950759887695312,-549,-405,-73,46656.81640625,52277,45797,50491,42230
32514.409,0.28339776396751404,0.23662574589252472,1.0594488382339478,-0.287247896194458,-0.15267044305801392,-0.034412793815135956,-0.0819699764251709,-0.10365244001150131,0.005334734916687012,6.9277729988098145,4.7191948890686035,2.1819307804107666,-530,-441,-64,46602.78515625,52447,45069,50289,42883
32524.287,0.28049033880233765,0.23448163270950317,1.0590213537216187,-0.2939888834953308,-0.16598378121852875,-0.03371623903512955,-0.02132924646139145,-0.1257636398077011,0.034499287605285645,6.623349666595459,4.465109348297119,2.174192428588867,-507,-413,-60,46610.3125,52508,45909,50248,41912
32534.161,0.27759960293769836,0.23221497237682343,1.0586395263671875,-0.3002106249332428,-0.1788322776556015,-0.031333912163972855,-0.04404293745756149,-0.09932085126638412,0.05578875541687012,6.324408054351807,4.212037086486816,2.1658437252044678,-508,-440,-67,46573.171875,52324,45354,50382,42563
32544.035,0.2746606469154358,0.22980287671089172,1.0583033561706543,-0.30611884593963623,-0.19140776991844177,-0.02672526426613331,-0.04160067439079285,-0.08785689622163773,0.0395510196685791,6.03795051574707,3.9498069286346436,2.1580045223236084,-507,-451,-57,46477.5,52054,44953,50666,42763
32553.912,0.27159738540649414,0.22726812958717346,1.0579864978790283,-0.311640202999115,-0.20326687395572662,-0.02318735420703888,-0.014602682553231716,-0.09820940345525742,0.04199349880218506,5.754370212554932,3.6835341453552246,2.1512820720672607,-471,-423,-50,46407.19140625,52055,45131,50641,42395
32563.784,0.2690276801586151,0.22526289522647858,1.0577635765075684,-0.3157328963279724,-0.213410422205925,-0.01994701288640499,-0.015063928440213203,-0.08471383899450302,0.03776955604553223,5.484569549560547,3.426112174987793,2.145599842071533,-493,-406,-45,46339.19140625,51836,44111,50688,43211
32573.672,0.2657391428947449,0.2222229391336441,1.057443618774414,-0.3181886374950409,-0.2231433093547821,-0.01676083169877529,-0.03210633620619774,-0.08327089995145798,0.021825313568115234,5.2102789878845215,3.1728708744049072,2.1402029991149902,-496,-385,-51,46277.0078125,51972,44512,50431,42762
32583.544,0.26224005222320557,0.21926303207874298,1.0571820735931396,-0.32326817512512207,-0.23352664709091187,-0.014553838409483433,-0.012263458222150803,-0.07884037494659424,0.050800323486328125,4.927462577819824,2.9475464820861816,2.130331516265869,-508,-371,-57,46236.12109375,51568,44899,50795,42345
32593.415,0.25888097286224365,0.2162570208311081,1.0569735765457153,-0.32749438285827637,-0.2434430867433548,-0.010465740226209164,-0.018076321110129356,-0.0743861272931099,0.03850829601287842,4.637060642242432,2.725872755050659,2.1178088188171387,-530,-336,-47,46144.98828125,52114,45132,50147,41857
32603.293,0.25557100772857666,0.2132912427186966,1.0568220615386963,-0.33098018169403076,-0.25234633684158325,-0.006669565103948116,-0.011710932478308678,-0.057344552129507065,0.020589232444763184,4.3305535316467285,2.5227713584899902,2.1063015460968018,-556,-347,-54,46057.7578125,51568,44037,50626,42995
32613.166,0.2522887885570526,0.21020762622356415,1.056696891784668,-0.33399784564971924,-0.26062557101249695,-0.00468633696436882,-0.0012760873651131988,-0.07207576185464859,0.047725677490234375,4.022690296173096,2.316962242126465,2.0924768447875977,-577,-308,-46,46014.24609375,51156,44378,51061,42501
32623.048,0.24896694719791412,0.20708833634853363,1.0566037893295288,-0.336717426776886,-0.2683626413345337,-0.00037342129508033395,-0.015493323095142841,-0.05133581906557083,0.032160043716430664,3.699819326400757,2.12451171875,2.0776844024658203,-593,-281,-46,45910.23828125,51543,44318,50549,42421
32632.92,0.24564136564731598,0.20385825634002686,1.0565567016601562,-0.33906516432762146,-0.2755765914916992,0.003170051844790578,0.018095260486006737,-0.06370964646339417,0.035531044006347656,3.358548641204834,1.9547975063323975,2.0611414909362793,-616,-252,-47,45822.61328125,51017,43720,50994,42947
32642.79,0.24231883883476257,0.20062512159347534,1.0565317869186401,-0.341037780046463,-0.28195205330848694,0.0062525044195353985,0.0018907117191702127,-0.040770284831523895,0.04608583450317383,3.010960817337036,1.792710304260254,2.0416207313537598,-575,-277,-52,45744.9140625,51606,43605,50253,43011
32652.669,0.23900200426578522,0.19727453589439392,1.0565208196640015,-0.3427210748195648,-0.2878956198692322,0.01044962927699089,-0.012021117843687534,-0.019361335784196854,0.02477264404296875,2.6726393699645996,1.6254247426986694,2.0216617584228516,-586,-261,-39,45637.9765625,50992,43469,50873,42886
32662.541,0.23565872013568878,0.19393791258335114,1.0565444231033325,-0.34407684206962585,-0.2929227948188782,0.012742258608341217,0.014651253819465637,-0.025786632671952248,0.027480363845825195,2.336858034133911,1.4597111940383911,2.004223585128784,-576,-278,-47,45576.53125,51183,43698,50558,42649
32672.416,0.23231589794158936,0.19056649506092072,1.0565794706344604,-0.34514865279197693,-0.29733026027679443,0.015116936527192593,0.04365939274430275,-0.01891244389116764,0.047705769538879395,2.004392623901367,1.2931287288665771,1.9835803508758545,-530,-269,-46,45512.046875,51299,43611,50360,42659
32682.294,0.22894187271595,0.18710358440876007,1.0566149950027466,-0.34608104825019836,-0.3013014793395996,0.01849866658449173,0.005653698462992907,-0.01866331323981285,0.030113697052001953,1.6971867084503174,1.132659673690796,1.9620280265808105,-525,-266,-43,45421.796875,51052,42422,50388,43570
32692.167,0.2255920022726059,0.18369132280349731,1.0567266941070557,-0.3466136157512665,-0.30438512563705444,0.02129792422056198,0.0028226892463862896,0.003106132848188281,0.023038506507873535,1.4064960479736328,0.9830612540245056,1.938349962234497,-446,-236,-49,45341.79296875,51108,43355,50191,42613
32702.044,0.22224988043308258,0.18017858266830444,1.0569798946380615,-0.3468772768974304,-0.30714482069015503,0.02364000491797924,0.043492432683706284,0.002055536722764373,0.03729414939880371,1.1478545665740967,0.8382551074028015,1.910603404045105,-413,-229,-57,45265.640625,51385,43340,49733,42621
32711.916,0.21887318789958954,0.17674334347248077,1.057243824005127,-0.3470006287097931,-0.3091783821582794,0.026805929839611053,0.015462471172213554,-0.005887849256396294,0.03521609306335449,0.9047225117683411,0.7001420855522156,1.8834939002990723,-370,-251,-47,45167.7265625,51456,42884,49604,42861
32721.796,0.21554504334926605,0.17326569557189941,1.0575364828109741,-0.3467964231967926,-0.3107989430427551,0.030201980844140053,0.00010439223842695355,0.0006447872729040682,0.030916571617126465,0.6839028596878052,0.5505439043045044,1.857654094696045,-329,-256,-47,45061.94140625,51491,42576,49434,43035
32731.672,0.21213245391845703,0.16969522833824158,1.0578570365905762,-0.34548383951187134,-0.3114157021045685,0.03329336270689964,0.017185717821121216,0.02281205542385578,0.020541071891784668,0.46417221426963806,0.378202348947525,1.830551028251648,-313,-233,-54,44961.73828125,51229,43181,49559,42379
32741.542,0.2088688164949417,0.16629652678966522,1.0581847429275513,-0.34453949332237244,-0.3119833469390869,0.034970544278621674,0.04887046292424202,0.015269306488335133,0.021697163581848145,0.28012287616729736,0.23211462795734406,1.801284670829773,-316,-228,-50,44896.09765625,51061,42748,49533,42584
32751.416,0.20558176934719086,0.162782683968544,1.0585613250732422,-0.34346792101860046,-0.3124985098838806,0.036913979798555374,0.03479311242699623,0.007544174790382385,0.02739715576171875,0.10194221884012222,0.0936388224363327,1.7721891403198242,-318,-213,-50,44820.86328125,50886,42085,49627,43155
32761.292,0.20230579376220703,0.15931090712547302,1.0589523315429688,-0.3421693444252014,-0.3126167058944702,0.03932248055934906,0.02243552729487419,0.017005424946546555,0.019154787063598633,-0.07717675715684891,-0.03666985034942627,1.7428559064865112,-300,-198,-47,44732.70703125,50890,42398,49534,42717
32771.169,0.19900810718536377,0.1557973027229309,1.0593359470367432,-0.3407834470272064,-0.3125379979610443,0.04062219336628914,0.024884497746825218,0.035500820726156235,0.0016115903854370117,-0.25104400515556335,-0.1562703400850296,1.7135473489761353,-295,-179,-49,44672.23828125,51041,42237,49263,42839
32781.043,0.19577255845069885,0.1523365080356598,1.0597318410873413,-0.3390621840953827,-0.3119514286518097,0.04062281921505928,0.061995480209589005,0.023038851097226143,0.020240306854248047,-0.4232834577560425,-0.26241371035575867,1.6835694313049316,-291,-151,-43,44643.41796875,50584,42617,49762,42383
32790.924,0.18930594623088837,0.14595302939414978,1.0606008768081665,-0.3400837481021881,-0.3126358985900879,0.04279560595750809,0.050279803574085236,0.021756725385785103,0.014942526817321777,-0.6245872974395752,-0.3552253246307373,1.6504253149032593,-256,-102,-48,44535.8984375,50894,45068,49253,39588
32800.793,0.1856251209974289,0.14207769930362701,1.0611333847045898,-0.3383549153804779,-0.31157395243644714,0.04447900503873825,0.012576574459671974,0.022887101396918297,0.008253812789916992,-0.8028534650802612,-0.4313257932662964,1.6181432008743286,-311,-89,-52,44456.9140625,49998,42612,49921,42139
32810.672,0.18274235725402832,0.13893623650074005,1.0615814924240112,-0.3349916338920593,-0.30903592705726624,0.04460880905389786,0.017388900741934776,0.05121615529060364,-0.004321753978729248,-0.9795290231704712,-0.4972436726093292,1.5873510837554932,-303,-96,-56,44420.734375,50133,41280,49845,43572
32820.543,0.17970387637615204,0.13561633229255676,1.0620731115341187,-0.33236247301101685,-0.3069031536579132,0.04377466440200806,0.05225767195224762,0.04016159102320671,-0.007759571075439453,-1.1517785787582397,-0.5638716220855713,1.5529632568359375,-292,-93,-54,44406.34375,49758,41131,50049,43583
32830.426,0.176547110080719,0.13233061134815216,1.0625168085098267,-0.32997581362724304,-0.3044964373111725,0.04293663799762726,0.07673545926809311,0.04301421716809273,-0.0023310184478759766,-1.3217136859893799,-0.6225141286849976,1.5171122550964355,-260,-77,-61,44394.33984375,50068,41973,49799,43001
32840.301,0.17347340285778046,0.12903942167758942,1.0629611015319824,-0.32734861969947815,-0.3018662631511688,0.04362580180168152,0.056583136320114136,0.01968477852642536,0.02006709575653076,-1.4696218967437744,-0.6738042235374451,1.4794414043426514,-234,-64,-65,44343.78515625,50189,41973,49570,42998
32850.173,0.17043741047382355,0.12577173113822937,1.0634502172470093,-0.32456445693969727,-0.298936128616333,0.04521678388118744,0.0339779369533062,0.02726621739566326,0.008805036544799805,-1.6065022945404053,-0.7234106659889221,1.439271330833435,-211,-83,-62,44267.953125,50336,41974,49172,42775
32860.053,0.16743287444114685,0.1226140558719635,1.06393301486969,-0.32180821895599365,-0.2956159710884094,0.04547182843089104,0.011615516617894173,0.040275342762470245,0.0010561943054199219,-1.7242969274520874,-0.7813817262649536,1.402301549911499,-153,-54,-65,44225.54296875,49769,42380,49676,42377
32869.924,0.16447260975837708,0.11942753940820694,1.0644227266311646,-0.3189476430416107,-0.2922936677932739,0.044801950454711914,0.015333341434597969,0.06116095185279846,-0.02772301435470581,-1.8335422277450562,-0.8310164213180542,1.361527681350708,-185,-82,-74,44205.75390625,50274,42107,49027,42754
32879.798,0.16156332194805145,0.1163036897778511,1.0648763179779053,-0.3159079849720001,-0.28880810737609863,0.04184076935052872,0.027456041425466537,0.07188616693019867,-0.026817739009857178,-1.9379836320877075,-0.8806548118591309,1.3167287111282349,-123,-51,-72,44245.25390625,50509,42344,48791,42603
32889.677,0.15866126120090485,0.11320597678422928,1.0653226375579834,-0.3128909468650818,-0.2851869761943817,0.0392412506043911,0.03881004825234413,0.049185436218976974,-0.02256309986114502,-2.0137522220611572,-0.9139872789382935,1.2739766836166382,-138,-49,-65,44276.23046875,50109,41475,49283,43456
32899.545,0.15578143298625946,0.1101430356502533,1.0657896995544434,-0.3098238706588745,-0.28134843707084656,0.03775329142808914,0.06445901840925217,0.05751023814082146,-0.01030796766281128,-2.092811346054077,-0.9466895461082458,1.2336159944534302,-77,-29,-68,44278.35546875,50626,42427,48660,42615
32909.422,0.15294919908046722,0.1072140485048294,1.0662060976028442,-0.3066547214984894,-0.2771275043487549,0.03664536401629448,0.08074772357940674,0.05311964452266693,-0.012408673763275146,-2.145815134048462,-0.9719110131263733,1.1931625604629517,-90,-21,-66,44273.44921875,50341,41890,49121,43264
32919.297,0.15053388476371765,0.10484155267477036,1.0665239095687866,-0.302812784910202,-0.27204906940460205,0.03517710790038109,0.08538157492876053,0.04629562050104141,0.0021380186080932617,-2.2015671730041504,-0.9944844245910645,1.154539942741394,-60,-30,-64,44282.51953125,50482,41963,48804,43106
32929.175,0.1474592238664627,0.10152923315763474,1.0670028924942017,-0.29703158140182495,-0.26557275652885437,0.0355679877102375,0.06146056577563286,0.03520492836833,0.008774757385253906,-2.254047155380249,-1.0271788835525513,1.1096466779708862,-46,4,-61,44236.73828125,49807,42635,48446,43752
32939.05,0.14470604062080383,0.09858430922031403,1.0674794912338257,-0.2939436435699463,-0.26151564717292786,0.03646541386842728,0.047010958194732666,0.03504576161503792,-0.00043582916259765625,-2.278764009475708,-1.0237703323364258,1.0729376077651978,-12,35,-69,44178.02734375,49862,42456,48452,43676
32948.927,0.1419822722673416,0.09579407423734665,1.0678815841674805,-0.2908739149570465,-0.2572703957557678,0.03549651429057121,0.03746862709522247,0.05273742228746414,-0.018621861934661865,-2.2888710498809814,-1.0063226222991943,1.0337152481079102,8,41,-70,44169.62109375,49795,42263,48430,43953
32958.804,0.13928638398647308,0.09307679533958435,1.0682836771011353,-0.28780922293663025,-0.2528872787952423,0.033298470079898834,0.024880072101950645,0.06083560362458229,-0.029525399208068848,-2.2894015312194824,-0.9822742938995361,0.9928428530693054,18,72,-66,44192.05078125,49635,43098,48738,43356
32968.683,0.13664667308330536,0.09037508815526962,1.0686137676239014,-0.2847440838813782,-0.24865037202835083,0.030083458870649338,0.01336884219199419,0.06557700037956238,-0.030091822147369385,-2.284921884536743,-0.947144091129303,0.9551263451576233,13,90,-64,44243.796875,49329,43148,49169,43303
32978.551,0.13406437635421753,0.08772622048854828,1.0689514875411987,-0.2816169559955597,-0.2443472295999527,0.027432430535554886,0.030369671061635017,0.07410310208797455,-0.03238797187805176,-2.2728734016418457,-0.89885413646698,0.9198473691940308,48,99,-62,44281.265625,49684,42722,48734,43599
32988.427,0.13144579529762268,0.08513995260000229,1.0692687034606934,-0.27877622842788696,-0.24008992314338684,0.024187834933400154,0.04175122454762459,0.07210676372051239,-0.038159847259521484,-2.2470779418945312,-0.8468939661979675,0.8819485306739807,52,88,-62,44334.89453125,49789,42850,48746,43782
32998.302,0.1289197951555252,0.0825871154665947,1.0695774555206299,-0.27589452266693115,-0.2359124720096588,0.020578619092702866,0.05621505156159401,0.07104043662548065,-0.03225576877593994,-2.209437847137451,-0.7976535558700562,0.8463107943534851,97,102,-58,44398.421875,49894,43366,48759,43293
33008.178,0.12641188502311707,0.08007907122373581,1.0698504447937012,-0.2730627655982971,-0.23170368373394012,0.01860477589070797,0.07319553196430206,0.04206263646483421,-0.02334696054458618,-2.1655826568603516,-0.74568772315979,0.8117614388465881,89,102,-58,44422.98046875,50077,43421,48580,43280
33018.051,0.12393151223659515,0.0776301920413971,1.0701258182525635,-0.27030879259109497,-0.22748565673828125,0.017422188073396683,0.07700297981500626,0.030667126178741455,-0.0030584335327148438,-2.11918306350708,-0.6938716769218445,0.7789148688316345,94,93,-59,44427.6484375,49970,43369,48714,43326
33027.925,0.12145441025495529,0.07522284239530563,1.0704089403152466,-0.267719030380249,-0.22336561977863312,0.017644308507442474,0.06492454558610916,0.02903817966580391,0.0006380081176757812,-2.070481300354004,-0.6455550789833069,0.7449264526367188,101,113,-63,44396.60546875,49715,43470,48866,43293
33037.8,0.1190272644162178,0.07282234728336334,1.0706554651260376,-0.2651614546775818,-0.21941423416137695,0.017509855329990387,0.05816173925995827,0.025840770453214645,-0.0066893696784973145,-2.0194091796875,-0.5922173857688904,0.709782063961029,87,105,-60,44376.1640625,49493,43073,49054,43686
33047.68,0.1166316419839859,0.07053060829639435,1.0709108114242554,-0.2626646161079407,-0.2154352366924286,0.017323438078165054,0.05226632207632065,0.045053865760564804,0.005663633346557617,-1.9763046503067017,-0.5400813817977905,0.6741933822631836,88,91,-63,44356.44921875,49702,43078,48754,43731
33057.552,0.11422458291053772,0.06821488589048386,1.0711524486541748,-0.26043903827667236,-0.21170508861541748,0.017536422237753868,0.018863709643483162,0.039416827261447906,-0.006281375885009766,-1.9251576662063599,-0.49310675263404846,0.6375420689582825,90,88,-59,44327.25,49550,42857,48857,43937
33067.429,0.11187207698822021,0.06597959995269775,1.0713653564453125,-0.2581339180469513,-0.2080235779285431,0.016332900151610374,0.010255636647343636,0.04171645641326904,-0.014796853065490723,-1.8867478370666504,-0.446773886680603,0.6016129851341248,77,90,-61,44334.93359375,49863,43101,48460,43797
33077.303,0.10953977704048157,0.06375617533922195,1.071520447731018,-0.25602445006370544,-0.20449891686439514,0.014858010224997997,0.004299899563193321,0.03720769286155701,-0.017771780490875244,-1.8378236293792725,-0.39757293462753296,0.5646957159042358,96,109,-68,44352.39453125,49417,43161,48885,43853
33087.184,0.10717657953500748,0.06156320124864578,1.0716737508773804,-0.2540980875492096,-0.20106518268585205,0.012569845654070377,-0.0011429076548665762,0.054014913737773895,-0.028090715408325195,-1.7870317697525024,-0.3404814898967743,0.5256587862968445,89,118,-67,44390.5,49257,43506,49021,43657
33097.052,0.10485145449638367,0.0594429187476635,1.07177734375,-0.2522132992744446,-0.19762882590293884,0.009325439110398293,0.014597101137042046,0.060083452612161636,-0.03270888328552246,-1.7359064817428589,-0.28733476996421814,0.488700807094574,120,110,-62,44455.38671875,49512,43600,48894,43572
33106.928,0.10249592363834381,0.05734096094965935,1.071830153465271,-0.250618040561676,-0.19439388811588287,0.0058472841046750546,0.029405705630779266,0.05501925200223923,-0.03672891855239868,-1.673750638961792,-0.23326346278190613,0.4544951021671295,114,99,-60,44529.1015625,49483,43525,49014,43740
33116.803,0.1001969575881958,0.055281125009059906,1.0718843936920166,-0.24895885586738586,-0.19121931493282318,0.0028526789974421263,0.041263628751039505,0.06508631259202957,-0.023758888244628906,-1.6148602962493896,-0.17835074663162231,0.4193338453769684,107,95,-67,44591.02734375,49961,43674,48506,43764
33126.683,0.09795515239238739,0.05324344336986542,1.0719354152679443,-0.24727526307106018,-0.1882014274597168,0.000757937494199723,0.0442902036011219,0.044852036982774734,-0.01571708917617798,-1.5490821599960327,-0.12382027506828308,0.3825470507144928,122,121,-61,44630.85546875,49671,43721,48992,43924
33136.556,0.09569121152162552,0.05119985714554787,1.07199227809906,-0.2457764744758606,-0.1853322833776474,-0.0007281645084731281,0.0685747042298317,0.022992843762040138,-0.014152944087982178,-1.4745142459869385,-0.058065321296453476,0.34619200229644775,162,136,-74,44655.32421875,49813,43947,48754,43882
33146.433,0.09346995502710342,0.0491938441991806,1.0720423460006714,-0.24429452419281006,-0.18255440890789032,-0.001346868579275906,0.06447295844554901,0.0269111730158329,0.004154562950134277,-1.3855040073394775,0.013438411056995392,0.3082687556743622,161,143,-60,44658.4609375,49771,44018,48847,43759
33156.308,0.09127724915742874,0.04723133519291878,1.0720927715301514,-0.24287278950214386,-0.17985951900482178,-0.0010191648034378886,0.05092635378241539,0.016467995941638947,0.0030254125595092773,-1.290313482284546,0.08659224957227707,0.26992225646972656,171,152,-71,44637.796875,49504,44218,48976,43690
33166.186,0.08905494213104248,0.04532787203788757,1.0721416473388672,-0.24171964824199677,-0.17725645005702972,-0.00040346969035454094,0.051207467913627625,0.011896545067429543,0.007294893264770508,-1.1939305067062378,0.15446139872074127,0.23096390068531036,185,147,-65,44609.84375,49374,44460,49079,43400
33176.055,0.0868724137544632,0.043416962027549744,1.0721898078918457,-0.24063239991664886,-0.17490002512931824,0.0003933374537155032,0.051434703171253204,0.01266490388661623,0.0070008039474487305,-1.090417504310608,0.22805453836917877,0.19182291626930237,201,152,-71,44577.20703125,49542,44557,48790,43358
33185.935,0.08472299575805664,0.04150141775608063,1.0722404718399048,-0.239620178937912,-0.17280036211013794,0.0010432315757498145,0.026281604543328285,0.007026065606623888,0.003726363182067871,-0.984699010848999,0.31296592950820923,0.15383760631084442,192,141,-74,44547.94140625,50019,44329,48202,43595
33195.81,0.08257043361663818,0.03961380571126938,1.072265386581421,-0.23879987001419067,-0.1708148568868637,0.001257189316675067,0.00287592108361423,-0.0003261266101617366,0.003163933753967285,-0.8817545175552368,0.38548725843429565,0.11405880004167557,161,144,-72,44530.76171875,49299,44454,48897,43518
33205.685,0.08043075352907181,0.03773893788456917,1.0722835063934326,-0.23803819715976715,-0.16905465722084045,0.0009447133634239435,-0.0033707357943058014,0.021513329818844795,-0.016142845153808594,-0.7946737408638,0.4636320471763611,0.07156345993280411,168,135,-67,44527.07421875,49961,44033,48121,44019
33215.556,0.07826966792345047,0.03593459352850914,1.0722732543945312,-0.23748993873596191,-0.16736343502998352,-0.0006668118294328451,-0.00867416337132454,0.024619832634925842,-0.014465689659118652,-0.6929534673690796,0.5329814553260803,0.0319155789911747,178,130,-66,44557.46875,49361,43801,48694,44114
33225.435,0.07611718773841858,0.03407258167862892,1.07224440574646,-0.2370537966489792,-0.16601979732513428,-0.003199454164132476,-0.006501649972051382,0.019666466861963272,-0.029812157154083252,-0.5966811180114746,0.5940824747085571,-0.00960472784936428,189,114,-73,44612.16015625,49639,45015,48302,43137
33235.307,0.07397857308387756,0.03227715194225311,1.0722099542617798,-0.23666197061538696,-0.16471891105175018,-0.005826829466968775,-0.00393117917701602,0.035548463463783264,-0.025193452835083008,-0.4989353120326996,0.6611177921295166,-0.05067383870482445,171,118,-68,44669.85546875,49876,43946,48125,44296
33245.192,0.07182720303535461,0.030462073162198067,1.0721678733825684,-0.2364756464958191,-0.16366684436798096,-0.00788560975342989,-0.005837936419993639,0.03225696459412575,-0.01898980140686035,-0.401859849691391,0.7146255970001221,-0.09134139865636826,167,85,-73,44713.98828125,49618,44184,48571,44296
33255.058,0.06965645402669907,0.028662782162427902,1.0721265077590942,-0.2363927960395813,-0.16277164220809937,-0.009992202743887901,0.021476734429597855,0.01679317094385624,-0.019873738288879395,-0.31186121702194214,0.7640080451965332,-0.13633659482002258,176,93,-77,44759.5625,50045,44732,47980,44014
33264.938,0.06750660389661789,0.02687901072204113,1.0720925331115723,-0.23639832437038422,-0.16201122105121613,-0.011414803564548492,0.032848116010427475,0.01579068787395954,-0.016308605670928955,-0.2237805724143982,0.8128511905670166,-0.17917943000793457,138,128,-70,44787.83984375,49384,45087,48796,43604
33274.809,0.06534943729639053,0.025101451203227043,1.0720499753952026,-0.23650537431240082,-0.16141417622566223,-0.013208892196416855,0.023246189579367638,0.014461817219853401,-0.018336236476898193,-0.14760461449623108,0.8708482384681702,-0.22223564982414246,153,93,-78,44826.06640625,49944,45164,48141,43695
33284.689,0.0631517544388771,0.023305756971240044,1.0719677209854126,-0.23679931461811066,-0.1609927862882614,-0.014263571240007877,0.043320756405591965,0.01952015422284603,-0.0018325448036193848,-0.07103130966424942,0.9189346432685852,-0.2669811248779297,115,84,-72,44847.9296875,49578,44496,48533,44454
33294.561,0.060966912657022476,0.021535372361540794,1.0718590021133423,-0.2371920794248581,-0.16068582236766815,-0.01418144442141056,0.04516896978020668,0.003425062168389559,0.0031510591506958008,-0.009607069194316864,0.9668315649032593,-0.31098034977912903,132,90,-73,44842.6796875,49798,44919,48257,44055
33304.443,0.058743271976709366,0.019757330417633057,1.071745753288269,-0.23774723708629608,-0.16047412157058716,-0.014323359355330467,0.04237894341349602,-0.0041610184125602245,0.0030483007431030273,0.05315713956952095,1.0164986848831177,-0.35327619314193726,125,99,-74,44843.2734375,49774,45240,48266,43742
33314.311,0.05654566362500191,0.017977796494960785,1.0716387033462524,-0.238316148519516,-0.1603751927614212,-0.012932741083204746,0.0384080670773983,-0.023052752017974854,0.014961719512939453,0.12551863491535187,1.0595808029174805,-0.39622384309768677,148,82,-77,44805.0234375,49602,45027,48350,43987
33324.189,0.054292306303977966,0.01620272919535637,1.0715060234069824,-0.23909252882003784,-0.1604246348142624,-0.011618549935519695,0.028130371123552322,-0.006720374803990126,0.01645481586456299,0.19112519919872284,1.0980616807937622,-0.4402919411659241,111,70,-66,44769.7734375,49854,44957,48062,43972
33334.075,0.0520651750266552,0.014418920502066612,1.0713684558868408,-0.23984935879707336,-0.1605493426322937,-0.010529293678700924,0.027111446484923363,-0.006663059815764427,0.01757526397705078,0.24906449019908905,1.130942702293396,-0.481393426656723,107,53,-70,44740.23046875,49836,44643,48055,44246
33343.945,0.04980195313692093,0.01264156959950924,1.0712285041809082,-0.24069224298000336,-0.16080787777900696,-0.009419386275112629,0.001804439933039248,-0.016807399690151215,0.009033799171447754,0.3117862343788147,1.1661992073059082,-0.5243922472000122,112,76,-71,44710.1328125,49399,44812,48378,44177
33353.811,0.047527313232421875,0.010862309485673904,1.0710771083831787,-0.2416638433933258,-0.16120785474777222,-0.008672727271914482,0.008444960229098797,-0.03051401488482952,0.004542112350463867,0.3773218095302582,1.2027623653411865,-0.5672953724861145,122,55,-75,44689.5859375,49482,45254,48349,43902
33363.69,0.04521738365292549,0.00904182530939579,1.0709152221679688,-0.24273234605789185,-0.16178470849990845,-0.008878359571099281,0.006568430457264185,-0.01639648713171482,0.0013474225997924805,0.44341304898262024,1.2303584814071655,-0.6101198196411133,119,30,-69,44693.41796875,49781,44676,47885,44358
